{
  "version": "1.0",
  "lastUpdated": "2025-12-01T21:01:47.971Z",
  "totalCount": 1740,
  "organizations": [
    {
      "id": "jh-staldservice",
      "name": "JH Staldservice",
      "type": "Corporate",
      "location": {
        "country": "Denmark",
        "city": "Holstebro",
        "coordinates": {
          "lat": 56.3828727,
          "lng": 8.6152374
        }
      },
      "projectCount": 1
    },
    {
      "id": "aalborg-university-hospital",
      "name": "Aalborg University Hospital",
      "type": "Medical",
      "location": {
        "country": "Denmark",
        "city": "Aalborg"
      },
      "projectCount": 28
    },
    {
      "id": "office-du-tourisme-de-la-ville-de-liège",
      "name": "Office du Tourisme de la Ville de Liège",
      "type": "Municipal",
      "location": {
        "country": "Belgium",
        "city": " Liège",
        "coordinates": {
          "lat": 50.645246,
          "lng": 5.578271
        }
      },
      "projectCount": 1
    },
    {
      "id": "belman-production-a/s",
      "name": "Belman Production A/S",
      "type": "Corporate",
      "location": {
        "country": "Denmark",
        "city": "Esbjerg N",
        "coordinates": {
          "lat": 55.5165307,
          "lng": 8.459625299999999
        }
      },
      "projectCount": 1
    },
    {
      "id": "vejdirektoratet",
      "name": "Vejdirektoratet",
      "type": "Government",
      "location": {
        "country": "Denmark",
        "coordinates": {
          "lat": 55.65075179999999,
          "lng": 12.1736913
        }
      },
      "projectCount": 11
    },
    {
      "id": "c.f.-møller",
      "name": "C.F. Møller",
      "type": "Corporate",
      "location": {
        "country": "Denmark",
        "city": "Århus C",
        "coordinates": {
          "lat": 56.1539441,
          "lng": 10.2125394
        }
      },
      "projectCount": 5
    },
    {
      "id": "yousee-a/s",
      "name": "YouSee A/S",
      "type": "Corporate",
      "location": {
        "country": "Denmark",
        "city": "København C",
        "coordinates": {
          "lat": 55.65365920000001,
          "lng": 12.5450403
        }
      },
      "projectCount": 1
    },
    {
      "id": "vuc-storstrøm",
      "name": "VUC Storstrøm",
      "type": "Other external organisation",
      "location": {
        "country": "Denmark",
        "city": "Nykøbing F.",
        "coordinates": {
          "lat": 54.7646476,
          "lng": 11.8790998
        }
      },
      "projectCount": 1
    },
    {
      "id": "kuben-management",
      "name": "Kuben Management",
      "type": "Corporate",
      "location": {
        "country": "Denmark",
        "coordinates": {
          "lat": 57.0538232,
          "lng": 9.912758600000002
        }
      },
      "projectCount": 2
    },
    {
      "id": "krone-vinduer",
      "name": "Krone Vinduer",
      "type": "Other external organisation",
      "location": {
        "country": "Denmark",
        "coordinates": {
          "lat": 57.393351,
          "lng": 9.985775199999999
        }
      },
      "projectCount": 1
    },
    {
      "id": "hjulmand-og-kaptajn",
      "name": "Hjulmand og Kaptajn",
      "type": "Other external organisation",
      "location": {
        "country": "Denmark",
        "coordinates": {
          "lat": 56.26392,
          "lng": 9.501785
        }
      },
      "projectCount": 3
    },
    {
      "id": "man-diesel-&-turbo",
      "name": "Man Diesel & Turbo",
      "type": "Corporate",
      "location": {
        "country": "Denmark",
        "city": "Frederikshavn",
        "coordinates": {
          "lat": 57.446843,
          "lng": 10.5173492
        }
      },
      "projectCount": 2
    },
    {
      "id": "hjørring-kommune",
      "name": "Hjørring Kommune",
      "type": "Municipal",
      "location": {
        "country": "Denmark",
        "coordinates": {
          "lat": 57.4601083,
          "lng": 9.9865735
        }
      },
      "projectCount": 26
    },
    {
      "id": "nordic-easy-chair-a/s",
      "name": "Nordic Easy Chair A/S",
      "type": "Corporate",
      "location": {
        "country": "Denmark",
        "city": "Aars",
        "coordinates": {
          "lat": 56.8023076,
          "lng": 9.510228999999999
        }
      },
      "projectCount": 1
    },
    {
      "id": "sgm-light-a/s",
      "name": "SGM Light A/S",
      "type": "Corporate",
      "location": {
        "country": "Denmark",
        "city": "Åbyhøj",
        "coordinates": {
          "lat": 56.173327,
          "lng": 10.1568339
        }
      },
      "projectCount": 1
    },
    {
      "id": "trombose-centeret,-aalborg-universitetshospital",
      "name": "Trombose Centeret, Aalborg Universitetshospital",
      "type": "Research institution",
      "location": {
        "country": "Denmark",
        "coordinates": {
          "lat": 57.0381685,
          "lng": 9.9061723
        }
      },
      "projectCount": 1
    },
    {
      "id": "ecco-sko-a/s",
      "name": "ECCO Sko A/S",
      "type": "Corporate",
      "location": {
        "country": "Denmark",
        "city": "Bredebro",
        "coordinates": {
          "lat": 55.060104,
          "lng": 8.8279607
        }
      },
      "projectCount": 1
    },
    {
      "id": "vesthimmerlands-kommune",
      "name": "Vesthimmerlands Kommune",
      "type": "Municipal",
      "location": {
        "country": "Denmark",
        "city": "Aars",
        "coordinates": {
          "lat": 56.80218199999999,
          "lng": 9.522973
        }
      },
      "projectCount": 2
    },
    {
      "id": "kk-electronic-a/s",
      "name": "KK-Electronic A/S",
      "type": "Corporate",
      "location": {
        "country": "Denmark",
        "city": "7430 Ikast",
        "coordinates": {
          "lat": 56.134165,
          "lng": 9.1282
        }
      },
      "projectCount": 1
    },
    {
      "id": "nokia-siemens-networks",
      "name": "Nokia Siemens Networks",
      "type": "Corporate",
      "location": {
        "country": "Finland",
        "coordinates": {
          "lat": 60.224712,
          "lng": 24.756523
        }
      },
      "projectCount": 4
    },
    {
      "id": "anonymous",
      "name": "Anonymous",
      "type": "Other external organisation",
      "location": {
        "country": "Denmark"
      },
      "projectCount": 12
    },
    {
      "id": "projekt-9220",
      "name": "Projekt 9220",
      "type": "Other external organisation",
      "location": {
        "country": "Denmark",
        "city": "Aalborg",
        "coordinates": {
          "lat": 57.027054,
          "lng": 10.004482
        }
      },
      "projectCount": 1
    },
    {
      "id": "s2-games",
      "name": "S2 Games",
      "type": "Other external organisation",
      "location": {
        "country": "United States",
        "coordinates": {
          "lat": 40.4711396,
          "lng": -88.9072832
        }
      },
      "projectCount": 1
    },
    {
      "id": "have-kommunikation-",
      "name": "Have Kommunikation ",
      "type": "Other external organisation",
      "location": {
        "country": "Denmark",
        "coordinates": {
          "lat": 55.6974353,
          "lng": 12.5433118
        }
      },
      "projectCount": 1
    },
    {
      "id": "horsens-ny-teater",
      "name": "Horsens Ny Teater",
      "type": "Other external organisation",
      "location": {
        "country": "Denmark",
        "coordinates": {
          "lat": 55.863014,
          "lng": 9.847767
        }
      },
      "projectCount": 1
    },
    {
      "id": "statens-museum-for-kunst",
      "name": "Statens Museum for Kunst",
      "type": "Other external organisation",
      "location": {
        "country": "Denmark",
        "city": "København K ",
        "coordinates": {
          "lat": 55.6888127,
          "lng": 12.5783303
        }
      },
      "projectCount": 2
    },
    {
      "id": "university-college-of-northern-denmark",
      "name": "University College of Northern Denmark",
      "type": "Academic",
      "location": {
        "country": "Denmark",
        "city": "Aalborg",
        "coordinates": {
          "lat": 57.458405,
          "lng": 10.002623
        }
      },
      "projectCount": 12
    },
    {
      "id": "lyngsoe-systems-",
      "name": "Lyngsoe Systems ",
      "type": "Corporate",
      "location": {
        "country": "Denmark",
        "city": "Aars"
      },
      "projectCount": 1
    },
    {
      "id": "telenor",
      "name": "Telenor",
      "type": "Corporate",
      "location": {
        "country": "Denmark"
      },
      "projectCount": 5
    },
    {
      "id": "kirsten-baggesen",
      "name": "Kirsten Baggesen",
      "type": "Other external organisation",
      "location": {
        "country": "Denmark",
        "coordinates": {
          "lat": 56.26392,
          "lng": 9.501785
        }
      },
      "projectCount": 1
    },
    {
      "id": "nyremedicinsk-ambulatorium,-medicinerhuset,-aalborg-universitetshospital",
      "name": "Nyremedicinsk Ambulatorium, Medicinerhuset, Aalborg Universitetshospital",
      "type": "Other external organisation",
      "location": {
        "country": "Denmark",
        "city": "Aalborg",
        "coordinates": {
          "lat": 57.037157,
          "lng": 9.907430999999999
        }
      },
      "projectCount": 1
    },
    {
      "id": "aarhus-vand-a/s",
      "name": "Aarhus Vand A/S",
      "type": "Corporate",
      "location": {
        "country": "Denmark",
        "coordinates": {
          "lat": 56.162939,
          "lng": 10.203921
        }
      },
      "projectCount": 5
    },
    {
      "id": "envidan-a/s",
      "name": "Envidan A/S",
      "type": "Corporate",
      "location": {
        "country": "Denmark"
      },
      "projectCount": 6
    },
    {
      "id": "cowi-a/s",
      "name": "COWI A/S",
      "type": "Corporate",
      "location": {
        "country": "Denmark",
        "coordinates": {
          "lat": 55.766,
          "lng": 12.507
        }
      },
      "projectCount": 23
    },
    {
      "id": "niras-a/s",
      "name": "NIRAS A/S",
      "type": "Corporate",
      "location": {
        "country": "Denmark",
        "coordinates": {
          "lat": 55.774384,
          "lng": 11.588701
        }
      },
      "projectCount": 24
    },
    {
      "id": "streetsocceraarhus,-dgi-østjylland",
      "name": "StreetSoccerAarhus, DGI Østjylland",
      "type": "Other external organisation",
      "location": {
        "country": "Denmark",
        "city": "Aarhus C",
        "coordinates": {
          "lat": 56.1486469,
          "lng": 10.2056338
        }
      },
      "projectCount": 1
    },
    {
      "id": "entreprenør-1",
      "name": "Entreprenør 1",
      "type": "Other external organisation",
      "location": {
        "country": "Denmark",
        "coordinates": {
          "lat": 55.5897618,
          "lng": 9.7626905
        }
      },
      "projectCount": 1
    },
    {
      "id": "entreprenør-2",
      "name": "Entreprenør 2",
      "type": "Other external organisation",
      "location": {
        "country": "Denmark",
        "coordinates": {
          "lat": 55.58967999999999,
          "lng": 9.761389999999999
        }
      },
      "projectCount": 1
    },
    {
      "id": "entreprenør-3",
      "name": "Entreprenør 3",
      "type": "Other external organisation",
      "location": {
        "country": "Denmark",
        "coordinates": {
          "lat": 55.5892545,
          "lng": 9.762331999999999
        }
      },
      "projectCount": 1
    },
    {
      "id": "vestas-a/s",
      "name": "Vestas A/S",
      "type": "Corporate",
      "location": {
        "country": "Denmark",
        "city": "Aarhus",
        "coordinates": {
          "lat": 55.6265618,
          "lng": 12.5774953
        }
      },
      "projectCount": 1
    },
    {
      "id": "enversion-a/s",
      "name": "Enversion A/S",
      "type": "Corporate",
      "location": {
        "country": "Denmark"
      },
      "projectCount": 5
    },
    {
      "id": "fbe-klinisk-biokemi-syd",
      "name": "FBE Klinisk Biokemi Syd",
      "type": "Other external organisation",
      "location": {
        "country": "Denmark",
        "city": "Aalborg",
        "coordinates": {
          "lat": 57.0381685,
          "lng": 9.9061723
        }
      },
      "projectCount": 2
    },
    {
      "id": "landsnet",
      "name": "Landsnet",
      "type": "Government",
      "location": {
        "country": "Iceland",
        "city": "Reykjavik",
        "coordinates": {
          "lat": 64.14285559999999,
          "lng": -21.8051416
        }
      },
      "projectCount": 1
    },
    {
      "id": "region-nordjylland",
      "name": "Region Nordjylland",
      "type": "Region",
      "location": {
        "country": "Denmark",
        "coordinates": {
          "lat": 57.0171061,
          "lng": 9.9865347
        }
      },
      "projectCount": 20
    },
    {
      "id": "mss-professional-a/s",
      "name": "MSS Professional A/S",
      "type": "Corporate",
      "location": {
        "country": "Denmark",
        "city": "Odense SØ",
        "coordinates": {
          "lat": 55.364043,
          "lng": 10.4649126
        }
      },
      "projectCount": 1
    },
    {
      "id": "solution-hub",
      "name": "Solution Hub",
      "type": "Other external organisation",
      "location": {
        "country": "Denmark",
        "city": "Aalborg Øst",
        "coordinates": {
          "lat": 57.012755,
          "lng": 9.98827
        }
      },
      "projectCount": 1
    },
    {
      "id": "regionshuset,-region-nordjylland",
      "name": "Regionshuset, Region Nordjylland",
      "type": "Region",
      "location": {
        "country": "Denmark",
        "city": "Aalborg øst",
        "coordinates": {
          "lat": 57.0171061,
          "lng": 9.9865347
        }
      },
      "projectCount": 1
    },
    {
      "id": "university-of-new-south-wales",
      "name": "University of New South Wales",
      "type": "Academic",
      "location": {
        "country": "Australia",
        "coordinates": {
          "lat": -33.917,
          "lng": 151.23
        }
      },
      "projectCount": 1
    },
    {
      "id": "bang-&-olufsen-a/s",
      "name": "Bang & Olufsen A/S",
      "type": "Corporate",
      "location": {
        "country": "Denmark",
        "coordinates": {
          "lat": 56.484303,
          "lng": 8.603139
        }
      },
      "projectCount": 9
    },
    {
      "id": "accelereyes",
      "name": "AccelerEyes",
      "type": "Corporate",
      "location": {
        "country": "United States",
        "city": "Atlanta",
        "coordinates": {
          "lat": 33.8487474,
          "lng": -84.3733851
        }
      },
      "projectCount": 1
    },
    {
      "id": "thorbjørn-vynne",
      "name": "Thorbjørn Vynne",
      "type": "Other external organisation",
      "location": {
        "country": "Denmark",
        "coordinates": {
          "lat": 56.26392,
          "lng": 9.501785
        }
      },
      "projectCount": 1
    },
    {
      "id": "renesas-mobile",
      "name": "Renesas Mobile",
      "type": "Corporate",
      "location": {
        "country": "Finland",
        "coordinates": {
          "lat": 61.4466761,
          "lng": 23.8538826
        }
      },
      "projectCount": 1
    },
    {
      "id": "smartcom-bulgaria-ad",
      "name": "Smartcom-Bulgaria AD",
      "type": "Other external organisation",
      "location": {
        "country": "Bulgaria",
        "city": "Sofia",
        "coordinates": {
          "lat": 42.65524,
          "lng": 23.38944
        }
      },
      "projectCount": 1
    },
    {
      "id": "wave-star-a/s",
      "name": "Wave Star A/S",
      "type": "Corporate",
      "location": {
        "country": "Denmark",
        "city": "Brndby",
        "coordinates": {
          "lat": 55.64840419999999,
          "lng": 12.4147968
        }
      },
      "projectCount": 1
    },
    {
      "id": "nordic-green",
      "name": "Nordic Green",
      "type": "Corporate",
      "location": {
        "country": "Denmark",
        "city": "Aarhus",
        "coordinates": {
          "lat": 56.1399151,
          "lng": 10.1919049
        }
      },
      "projectCount": 1
    },
    {
      "id": "det-norske-veritas",
      "name": "Det Norske Veritas",
      "type": "Other external organisation",
      "location": {
        "country": "Denmark",
        "city": "Esbjerg",
        "coordinates": {
          "lat": 55.4624126,
          "lng": 8.4453692
        }
      },
      "projectCount": 1
    },
    {
      "id": "ramboll-foundation",
      "name": "Ramboll Foundation",
      "type": "Corporate",
      "location": {
        "country": "Denmark",
        "city": "Copenhagen",
        "coordinates": {
          "lat": 55.8,
          "lng": 12.495
        }
      },
      "projectCount": 34
    },
    {
      "id": "geriatrisk-afdeling,-medicinsk-center,-aalborg-sygehus",
      "name": "Geriatrisk Afdeling, Medicinsk Center, Aalborg Sygehus",
      "type": "Other external organisation",
      "location": {
        "country": "Denmark",
        "city": "Aalborg",
        "coordinates": {
          "lat": 57.0381685,
          "lng": 9.9061723
        }
      },
      "projectCount": 1
    },
    {
      "id": "rødovre-kommune",
      "name": "Rødovre Kommune",
      "type": "Municipal",
      "location": {
        "country": "Denmark",
        "city": "Rødovre",
        "coordinates": {
          "lat": 55.6812625,
          "lng": 12.4559003
        }
      },
      "projectCount": 1
    },
    {
      "id": "swords-to-plowshares",
      "name": "Swords to Plowshares",
      "type": "NGO",
      "location": {
        "country": "United States",
        "city": "San Francisco, CA",
        "coordinates": {
          "lat": 37.7787418,
          "lng": -122.4086756
        }
      },
      "projectCount": 1
    },
    {
      "id": "aalborg-municipality",
      "name": "Aalborg Municipality",
      "type": "Municipal",
      "location": {
        "country": "Denmark",
        "city": "Nørresundby",
        "coordinates": {
          "lat": 57.0461457,
          "lng": 9.919308599999999
        }
      },
      "projectCount": 54
    },
    {
      "id": "holstebro-kommune",
      "name": "Holstebro Kommune",
      "type": "Municipal",
      "location": {
        "country": "Denmark"
      },
      "projectCount": 3
    },
    {
      "id": "psykiatrisk-center-glostrup",
      "name": "Psykiatrisk Center Glostrup",
      "type": "Other external organisation",
      "location": {
        "country": "Denmark",
        "city": "Glostrup",
        "coordinates": {
          "lat": 55.6726974,
          "lng": 12.3917576
        }
      },
      "projectCount": 1
    },
    {
      "id": "kløverengen",
      "name": "Kløverengen",
      "type": "Other external organisation",
      "location": {
        "country": "Denmark",
        "city": "Vallensbæk",
        "coordinates": {
          "lat": 55.6556685,
          "lng": 12.3614549
        }
      },
      "projectCount": 1
    },
    {
      "id": "skolegades-skole",
      "name": "Skolegades Skole",
      "type": "Other external organisation",
      "location": {
        "country": "Denmark",
        "city": "Brønderslev",
        "coordinates": {
          "lat": 57.2683982,
          "lng": 9.951606499999999
        }
      },
      "projectCount": 1
    },
    {
      "id": "familieafdeling",
      "name": "Familieafdeling",
      "type": "Other external organisation",
      "location": {
        "country": "Denmark",
        "coordinates": {
          "lat": 55.831261,
          "lng": 10.589611
        }
      },
      "projectCount": 1
    },
    {
      "id": "under-the-same-sky-kenya",
      "name": "Under the Same Sky Kenya",
      "type": "NGO",
      "location": {
        "country": "Kenya",
        "city": ", Nairobi",
        "coordinates": {
          "lat": -1.2920659,
          "lng": 36.8219462
        }
      },
      "projectCount": 1
    },
    {
      "id": "umande-trust",
      "name": "Umande Trust",
      "type": "Other external organisation",
      "location": {
        "country": "Kenya",
        "city": "Nairobi",
        "coordinates": {
          "lat": -1.3066688,
          "lng": 36.7892291
        }
      },
      "projectCount": 1
    },
    {
      "id": "toms-gruppen-a/s",
      "name": "Toms Gruppen A/S",
      "type": "Corporate",
      "location": {
        "country": "Denmark",
        "city": "Ballerup ",
        "coordinates": {
          "lat": 55.734727,
          "lng": 12.372271
        }
      },
      "projectCount": 2
    },
    {
      "id": "ibis-danmark",
      "name": "IBIS Danmark",
      "type": "NGO",
      "location": {
        "country": "Denmark",
        "city": "København V",
        "coordinates": {
          "lat": 55.6756733,
          "lng": 12.5666063
        }
      },
      "projectCount": 1
    },
    {
      "id": "danida-/-danish-foreign-ministry",
      "name": "Danida / Danish Foreign Ministry",
      "type": "Governmental",
      "location": {
        "country": "Denmark",
        "coordinates": {
          "lat": 55.6746093,
          "lng": 12.5891365
        }
      },
      "projectCount": 1
    },
    {
      "id": "crossfit-aalborg",
      "name": "CrossFit Aalborg",
      "type": "Corporate",
      "location": {
        "country": "Denmark",
        "city": "Aalborg",
        "coordinates": {
          "lat": 57.0481726,
          "lng": 9.9500586
        }
      },
      "projectCount": 1
    },
    {
      "id": "skælskør-julemærkehjem",
      "name": "Skælskør Julemærkehjem",
      "type": "Other external organisation",
      "location": {
        "country": "Denmark",
        "coordinates": {
          "lat": 55.2496136,
          "lng": 11.2738297
        }
      },
      "projectCount": 1
    },
    {
      "id": "energinet-sov",
      "name": "Energinet SOV",
      "type": "Corporate",
      "location": {
        "country": "Denmark",
        "coordinates": {
          "lat": 55.53452,
          "lng": 9.70077
        }
      },
      "projectCount": 11
    },
    {
      "id": "frivilligcentre-&-selvhjælp-danmark-",
      "name": "Frivilligcentre & Selvhjælp Danmark ",
      "type": "NGO",
      "location": {
        "country": "Denmark",
        "city": "Aalborg",
        "coordinates": {
          "lat": 57.04749649999999,
          "lng": 9.9210455
        }
      },
      "projectCount": 1
    },
    {
      "id": "bispebjerg-hospital",
      "name": "Bispebjerg Hospital",
      "type": "Region",
      "location": {
        "country": "Denmark",
        "city": "KBH NV",
        "coordinates": {
          "lat": 55.7140142,
          "lng": 12.5401313
        }
      },
      "projectCount": 2
    },
    {
      "id": "hasseris-gymnasium",
      "name": "Hasseris Gymnasium",
      "type": "Educational institution",
      "location": {
        "country": "Denmark",
        "coordinates": {
          "lat": 57.0259313,
          "lng": 9.876738
        }
      },
      "projectCount": 4
    },
    {
      "id": "viking-life-saving-equipment-a/s",
      "name": "Viking Life-Saving Equipment A/S",
      "type": "Corporate",
      "location": {
        "country": "Denmark",
        "city": "Esbjerg V"
      },
      "projectCount": 1
    },
    {
      "id": "nordjyllands-kystmuseum-(skagen-by--og-egnsmuseum,-bangsbo-museum-&-sæby-museum)",
      "name": "Nordjyllands Kystmuseum (Skagen By- og Egnsmuseum, Bangsbo Museum & Sæby Museum)",
      "type": "Other external organisation",
      "location": {
        "country": "Denmark",
        "coordinates": {
          "lat": 57.419721,
          "lng": 10.5030509
        }
      },
      "projectCount": 1
    },
    {
      "id": "bunker43",
      "name": "Bunker43",
      "type": "Other external organisation",
      "location": {
        "country": "Denmark",
        "city": "Aalborg",
        "coordinates": {
          "lat": 57.043104,
          "lng": 9.920222
        }
      },
      "projectCount": 1
    },
    {
      "id": "ingeniørgruppen-vestjylland",
      "name": "Ingeniørgruppen Vestjylland",
      "type": "Other external organisation",
      "location": {
        "country": "Denmark",
        "city": "Lem",
        "coordinates": {
          "lat": 56.026189,
          "lng": 8.387099
        }
      },
      "projectCount": 2
    },
    {
      "id": "agco",
      "name": "AGCO",
      "type": "Other external organisation",
      "location": {
        "country": "Denmark",
        "city": "Randers NØ",
        "coordinates": {
          "lat": 56.47768809999999,
          "lng": 10.074809
        }
      },
      "projectCount": 1
    },
    {
      "id": "arvid-nilsson",
      "name": "Arvid Nilsson",
      "type": "Other external organisation",
      "location": {
        "country": "Denmark",
        "city": "Kolding",
        "coordinates": {
          "lat": 55.5353286,
          "lng": 9.4653795
        }
      },
      "projectCount": 1
    },
    {
      "id": "ea-energy-analyses",
      "name": "Ea Energy Analyses",
      "type": "Other external organisation",
      "location": {
        "country": "Denmark",
        "city": "København",
        "coordinates": {
          "lat": 55.67589779999999,
          "lng": 12.5749118
        }
      },
      "projectCount": 1
    },
    {
      "id": "frederikshavn-municipality",
      "name": "Frederikshavn Municipality",
      "type": "Municipal",
      "location": {
        "country": "Denmark",
        "city": "Frederikshavn",
        "coordinates": {
          "lat": 57.441289,
          "lng": 10.5330566
        }
      },
      "projectCount": 7
    },
    {
      "id": "grundfos-dk-as",
      "name": "Grundfos DK AS",
      "type": "Corporate",
      "location": {
        "country": "Denmark",
        "coordinates": {
          "lat": 56.372795,
          "lng": 9.658202
        }
      },
      "projectCount": 23
    },
    {
      "id": "nordland-automatic-a/s",
      "name": "Nordland Automatic A/S",
      "type": "Corporate",
      "location": {
        "country": "Denmark",
        "city": "Nørresundby",
        "coordinates": {
          "lat": 57.065196,
          "lng": 9.903497
        }
      },
      "projectCount": 1
    },
    {
      "id": "erhvervsakademiet-lillebaelt,-bygningskonstruktøruddannelsen",
      "name": "Erhvervsakademiet Lillebaelt, Bygningskonstruktøruddannelsen",
      "type": "Other external organisation",
      "location": {
        "country": "Denmark",
        "city": "Odense C",
        "coordinates": {
          "lat": 55.4039103,
          "lng": 10.3799492
        }
      },
      "projectCount": 1
    },
    {
      "id": "københavns-kommune",
      "name": "Københavns Kommune",
      "type": "Municipal",
      "location": {
        "country": "Denmark",
        "city": "Købehavn",
        "coordinates": {
          "lat": 55.6752833,
          "lng": 12.5701632
        }
      },
      "projectCount": 18
    },
    {
      "id": "hospice-vendsyssel",
      "name": "Hospice Vendsyssel",
      "type": "Other external organisation",
      "location": {
        "country": "Denmark",
        "city": "Frederikshavn",
        "coordinates": {
          "lat": 57.432202,
          "lng": 10.5009901
        }
      },
      "projectCount": 1
    },
    {
      "id": "ankerfjord-hospice",
      "name": "Ankerfjord Hospice",
      "type": "Other external organisation",
      "location": {
        "country": "Denmark",
        "city": "Hvide Sande",
        "coordinates": {
          "lat": 56.0245536,
          "lng": 8.1241329
        }
      },
      "projectCount": 2
    },
    {
      "id": "diakonissestiftelsens-hospice",
      "name": "Diakonissestiftelsens hospice",
      "type": "Other external organisation",
      "location": {
        "country": "Denmark",
        "city": "Frederiksberg",
        "coordinates": {
          "lat": 55.677785,
          "lng": 12.517254
        }
      },
      "projectCount": 2
    },
    {
      "id": "ilulissats-isfjords-kontor",
      "name": "Ilulissats Isfjords kontor",
      "type": "Other external organisation",
      "location": {
        "country": "Greenland",
        "city": "Ilulissat",
        "coordinates": {
          "lat": 69.2198118,
          "lng": -51.0986031
        }
      },
      "projectCount": 1
    },
    {
      "id": "johansson-og-kalstrup-a/s",
      "name": "Johansson og Kalstrup A/S",
      "type": "Corporate",
      "location": {
        "country": "Denmark",
        "city": "Varde",
        "coordinates": {
          "lat": 55.6305346,
          "lng": 8.4949569
        }
      },
      "projectCount": 1
    },
    {
      "id": "red-cross",
      "name": "Red Cross",
      "type": "NGO",
      "projectCount": 6
    },
    {
      "id": "arla-foods",
      "name": "Arla Foods",
      "type": "Corporate",
      "location": {
        "country": "Denmark",
        "coordinates": {
          "lat": 56.133034,
          "lng": 10.135868
        }
      },
      "projectCount": 4
    },
    {
      "id": "uhrehøje",
      "name": "Uhrehøje",
      "type": "Corporate",
      "location": {
        "country": "Denmark",
        "city": "Farsø",
        "coordinates": {
          "lat": 56.7987012,
          "lng": 9.260791
        }
      },
      "projectCount": 1
    },
    {
      "id": "skovdyrkerforeningen-midtjylland",
      "name": "Skovdyrkerforeningen Midtjylland",
      "type": "Other external organisation",
      "location": {
        "country": "Denmark",
        "city": "Viborg",
        "coordinates": {
          "lat": 56.45028,
          "lng": 9.429973
        }
      },
      "projectCount": 1
    },
    {
      "id": "det-nordjyske-mediehus-a/s",
      "name": "Det Nordjyske Mediehus A/S",
      "type": "Corporate",
      "location": {
        "country": "Denmark"
      },
      "projectCount": 4
    },
    {
      "id": "university-of-international-relations",
      "name": "University of International Relations",
      "type": "Academic",
      "location": {
        "country": "China",
        "city": "Beijing",
        "coordinates": {
          "lat": 40.003,
          "lng": 116.284
        }
      },
      "projectCount": 5
    },
    {
      "id": "martin-professional-a/s",
      "name": "Martin Professional A/S",
      "type": "Corporate",
      "location": {
        "country": "Denmark",
        "city": "Aarhus",
        "coordinates": {
          "lat": 56.18839939999999,
          "lng": 10.1883374
        }
      },
      "projectCount": 1
    },
    {
      "id": "unity-studios",
      "name": "Unity Studios",
      "type": "Corporate",
      "location": {
        "country": "Denmark",
        "city": "Aarhus"
      },
      "projectCount": 3
    },
    {
      "id": "brønderslev-neurorehabiliteringscenter",
      "name": "Brønderslev Neurorehabiliteringscenter",
      "type": "Other external organisation",
      "location": {
        "country": "Denmark",
        "city": "Brønderslev",
        "coordinates": {
          "lat": 57.277259,
          "lng": 9.949437
        }
      },
      "projectCount": 4
    },
    {
      "id": "jan-ovesen",
      "name": "Jan Ovesen",
      "type": "Corporate",
      "location": {
        "country": "Denmark",
        "coordinates": {
          "lat": 55.699872,
          "lng": 12.587661
        }
      },
      "projectCount": 1
    },
    {
      "id": "huge-lawn",
      "name": "Huge Lawn",
      "type": "Corporate",
      "location": {
        "country": "Denmark",
        "city": "Aalborg",
        "coordinates": {
          "lat": 57.04606949999999,
          "lng": 9.9223173
        }
      },
      "projectCount": 1
    },
    {
      "id": "oj-electronics-a/s",
      "name": "OJ ELECTRONICS A/S",
      "type": "Corporate",
      "location": {
        "country": "Denmark",
        "city": "SØNDERBORG",
        "coordinates": {
          "lat": 54.92406399999999,
          "lng": 9.811985
        }
      },
      "projectCount": 1
    },
    {
      "id": "öko-institut-e.v.",
      "name": "Öko-Institut e.V.",
      "type": "NGO",
      "location": {
        "country": "Germany"
      },
      "projectCount": 2
    },
    {
      "id": "stahl-zentrum-",
      "name": "Stahl-Zentrum ",
      "type": "Other external organisation",
      "location": {
        "country": "Germany",
        "city": "Düsseldorf",
        "coordinates": {
          "lat": 51.2389358,
          "lng": 6.8137998
        }
      },
      "projectCount": 1
    },
    {
      "id": "energieintensive-industrien-deutschland",
      "name": "Energieintensive Industrien Deutschland",
      "type": "Other external organisation",
      "location": {
        "country": "Germany",
        "city": "Bonn",
        "coordinates": {
          "lat": 50.72998,
          "lng": 7.10881
        }
      },
      "projectCount": 1
    },
    {
      "id": "verband-der-industriellen-energie--und-kraftwirtschaft",
      "name": "Verband der Industriellen Energie- und Kraftwirtschaft",
      "type": "Other external organisation",
      "location": {
        "country": "Germany",
        "city": "Essen",
        "coordinates": {
          "lat": 51.44171,
          "lng": 7.02259
        }
      },
      "projectCount": 1
    },
    {
      "id": "bundesverband-erneuerbarer-energien-e.v-.",
      "name": "Bundesverband Erneuerbarer Energien e.V .",
      "type": "Other external organisation",
      "location": {
        "country": "Germany",
        "city": "Berlin",
        "coordinates": {
          "lat": 52.52841549999999,
          "lng": 13.3769552
        }
      },
      "projectCount": 1
    },
    {
      "id": "bund-der-energieverbraucher",
      "name": "Bund der Energieverbraucher",
      "type": "Other external organisation",
      "location": {
        "country": "Germany",
        "city": "Unkel",
        "coordinates": {
          "lat": 50.59814,
          "lng": 7.21608
        }
      },
      "projectCount": 1
    },
    {
      "id": "verbraucherzentrale-hessen-e.v-.",
      "name": "Verbraucherzentrale Hessen e.V .",
      "type": "Other external organisation",
      "location": {
        "country": "Germany",
        "city": "Frankfurt am Main",
        "coordinates": {
          "lat": 50.115399,
          "lng": 8.686226
        }
      },
      "projectCount": 1
    },
    {
      "id": "aalborg-hospital-and-aarhus-university-hospital",
      "name": "Aalborg Hospital and Aarhus University Hospital",
      "type": "Medical",
      "location": {
        "country": "Denmark",
        "coordinates": {
          "lat": 57.0381685,
          "lng": 9.9061723
        }
      },
      "projectCount": 1
    },
    {
      "id": "gynækologisk-klinik-taastrup",
      "name": "Gynækologisk Klinik Taastrup",
      "type": "Other external organisation",
      "location": {
        "country": "Denmark",
        "city": "Taastrup",
        "coordinates": {
          "lat": 55.6463701,
          "lng": 12.2988621
        }
      },
      "projectCount": 1
    },
    {
      "id": "danish-building-research-institute-(sbi),-department-of-energy-and-environment",
      "name": "Danish Building Research Institute (SBI), Department of Energy and Environment",
      "type": "Unknown",
      "projectCount": 1
    },
    {
      "id": "trip-trap-denmark-a/s",
      "name": "TRIP TRAP DENMARK A/S",
      "type": "Corporate",
      "location": {
        "country": "Denmark",
        "city": "Aalborg",
        "coordinates": {
          "lat": 57.0505924,
          "lng": 9.895483700000002
        }
      },
      "projectCount": 2
    },
    {
      "id": "højer-",
      "name": "Højer ",
      "type": "Other external organisation",
      "location": {
        "country": "Denmark",
        "city": "Vodskov",
        "coordinates": {
          "lat": 57.072624,
          "lng": 10.137571
        }
      },
      "projectCount": 2
    },
    {
      "id": "tuco-marine-aps",
      "name": "Tuco Marine ApS",
      "type": "Corporate",
      "location": {
        "country": "Denmark",
        "city": "Fåborg",
        "coordinates": {
          "lat": 55.112991,
          "lng": 10.219337
        }
      },
      "projectCount": 1
    },
    {
      "id": "ccbr-a/s",
      "name": "CCBR A/S",
      "type": "Corporate",
      "location": {
        "country": "Denmark",
        "city": "Aalborg",
        "coordinates": {
          "lat": 57.0351067,
          "lng": 9.907569299999999
        }
      },
      "projectCount": 1
    },
    {
      "id": "takeda-pharmaceutical-company-limited",
      "name": "Takeda Pharmaceutical Company Limited",
      "type": "Corporate",
      "location": {
        "country": "Japan",
        "coordinates": {
          "lat": 34.689,
          "lng": 135.5
        }
      },
      "projectCount": 1
    },
    {
      "id": "haderslev-sundhedspleje",
      "name": "Haderslev Sundhedspleje",
      "type": "Other external organisation",
      "location": {
        "country": "Denmark",
        "city": "Haderslev",
        "coordinates": {
          "lat": 55.2567744,
          "lng": 9.487877
        }
      },
      "projectCount": 1
    },
    {
      "id": "haderslev-fødeafdeling",
      "name": "Haderslev fødeafdeling",
      "type": "Other external organisation",
      "location": {
        "country": "Denmark",
        "city": "Haderslev",
        "coordinates": {
          "lat": 55.2426451,
          "lng": 9.453025
        }
      },
      "projectCount": 1
    },
    {
      "id": "faaborg-midtfyn-kommune",
      "name": "Faaborg-Midtfyn Kommune",
      "type": "Municipal",
      "location": {
        "country": "Denmark",
        "city": "Ringe",
        "coordinates": {
          "lat": 55.23477699999999,
          "lng": 10.4811511
        }
      },
      "projectCount": 1
    },
    {
      "id": "experimentarium",
      "name": "Experimentarium",
      "type": "Government",
      "location": {
        "country": "Denmark",
        "coordinates": {
          "lat": 55.7265534,
          "lng": 12.5791806
        }
      },
      "projectCount": 1
    },
    {
      "id": "arbejdermuseet",
      "name": "Arbejdermuseet",
      "type": "Other external organisation",
      "location": {
        "country": "Denmark",
        "city": "København K",
        "coordinates": {
          "lat": 55.684741,
          "lng": 12.570408
        }
      },
      "projectCount": 1
    },
    {
      "id": "butler-|-loftet-retail",
      "name": "Butler | Loftet retail",
      "type": "Corporate",
      "location": {
        "country": "Denmark",
        "city": "Aalborg",
        "coordinates": {
          "lat": 57.04946,
          "lng": 9.9178851
        }
      },
      "projectCount": 1
    },
    {
      "id": "sustainable-energy-authority-of-ireland",
      "name": "Sustainable Energy Authority of Ireland",
      "type": "Governmental",
      "location": {
        "country": "Ireland",
        "city": "Dublin",
        "coordinates": {
          "lat": 53.3336986,
          "lng": -6.249872
        }
      },
      "projectCount": 1
    },
    {
      "id": "antvorskov-skole",
      "name": "Antvorskov Skole",
      "type": "Other external organisation",
      "location": {
        "country": "Denmark",
        "city": "Slagelse",
        "coordinates": {
          "lat": 55.39275199999999,
          "lng": 11.3566146
        }
      },
      "projectCount": 1
    },
    {
      "id": "dinnerssurfer",
      "name": "Dinnerssurfer",
      "type": "Other external organisation",
      "location": {
        "country": "Denmark",
        "coordinates": {
          "lat": 56.26392,
          "lng": 9.501785
        }
      },
      "projectCount": 1
    },
    {
      "id": "enveo",
      "name": "Enveo",
      "type": "Other external organisation",
      "location": {
        "country": "Denmark",
        "city": "Aalborg",
        "coordinates": {
          "lat": 57.0455254,
          "lng": 9.9286567
        }
      },
      "projectCount": 1
    },
    {
      "id": "suspekt",
      "name": "Suspekt",
      "type": "Other external organisation",
      "location": {
        "country": "Denmark",
        "city": "Vanløse",
        "coordinates": {
          "lat": 55.6948573,
          "lng": 12.4841416
        }
      },
      "projectCount": 1
    },
    {
      "id": "barnets-blå-hus",
      "name": "Barnets Blå Hus",
      "type": "Other external organisation",
      "location": {
        "country": "Denmark",
        "city": "København S",
        "coordinates": {
          "lat": 55.6581896,
          "lng": 12.603253
        }
      },
      "projectCount": 1
    },
    {
      "id": "nordjyllands-idrætshøjskole",
      "name": "Nordjyllands Idrætshøjskole",
      "type": "Other external organisation",
      "location": {
        "country": "Denmark",
        "coordinates": {
          "lat": 57.27733199999999,
          "lng": 9.945852
        }
      },
      "projectCount": 1
    },
    {
      "id": "newline-a/s",
      "name": "Newline A/S",
      "type": "Corporate",
      "location": {
        "country": "Denmark",
        "coordinates": {
          "lat": 57.108722,
          "lng": 10.082772
        }
      },
      "projectCount": 1
    },
    {
      "id": "national-research-centre-for-the-working-environment",
      "name": "National Research Centre for the Working Environment",
      "type": "Academic",
      "location": {
        "country": "Denmark",
        "coordinates": {
          "lat": 55.714,
          "lng": 12.548
        }
      },
      "projectCount": 4
    },
    {
      "id": "gug-skole",
      "name": "Gug skole",
      "type": "Educational institution",
      "location": {
        "country": "Denmark",
        "city": "Aalborg SØ",
        "coordinates": {
          "lat": 57.0054525,
          "lng": 9.930586199999999
        }
      },
      "projectCount": 1
    },
    {
      "id": "gynækologisk-obstetrisk-afdeling-aalborg-universitetshospital-",
      "name": "Gynækologisk-obstetrisk afdeling Aalborg Universitetshospital ",
      "type": "Other external organisation",
      "location": {
        "country": "Denmark",
        "city": "Aalborg",
        "coordinates": {
          "lat": 57.0488568,
          "lng": 9.9126351
        }
      },
      "projectCount": 2
    },
    {
      "id": "hobro-hospital",
      "name": "Hobro Hospital",
      "type": "Other external organisation",
      "location": {
        "country": "Denmark",
        "city": " Hobro",
        "coordinates": {
          "lat": 56.633273,
          "lng": 9.7975049
        }
      },
      "projectCount": 1
    },
    {
      "id": "bodylab",
      "name": "Bodylab",
      "type": "Corporate",
      "location": {
        "country": "Denmark",
        "coordinates": {
          "lat": 56.7291739,
          "lng": 10.1030343
        }
      },
      "projectCount": 1
    },
    {
      "id": "marathon-travel-club",
      "name": "Marathon Travel Club",
      "type": "Corporate",
      "location": {
        "country": "Denmark",
        "coordinates": {
          "lat": 56.26392,
          "lng": 9.501785
        }
      },
      "projectCount": 1
    },
    {
      "id": "danfoss-as",
      "name": "Danfoss AS",
      "type": "Corporate",
      "location": {
        "country": "Denmark",
        "coordinates": {
          "lat": 55.036,
          "lng": 9.815
        }
      },
      "projectCount": 6
    },
    {
      "id": "össur",
      "name": "Össur",
      "type": "Corporate",
      "location": {
        "country": "Iceland",
        "city": "Reykjavík",
        "coordinates": {
          "lat": 64.1233591,
          "lng": -21.8003592
        }
      },
      "projectCount": 1
    },
    {
      "id": "aalborg-teater",
      "name": "Aalborg Teater",
      "type": "Government",
      "location": {
        "country": "Denmark",
        "coordinates": {
          "lat": 57.046989,
          "lng": 9.916379
        }
      },
      "projectCount": 2
    },
    {
      "id": "joe-&-the-juice",
      "name": "Joe & The Juice",
      "type": "Other external organisation",
      "location": {
        "country": "Denmark",
        "city": "Aalborg",
        "coordinates": {
          "lat": 57.0477541,
          "lng": 9.9264507
        }
      },
      "projectCount": 1
    },
    {
      "id": "søren-toft",
      "name": "Søren Toft",
      "type": "Academic",
      "location": {
        "country": "Denmark",
        "coordinates": {
          "lat": 55.792905,
          "lng": 12.4869739
        }
      },
      "projectCount": 1
    },
    {
      "id": "danmarks-radio",
      "name": "Danmarks Radio",
      "type": "Government",
      "location": {
        "country": "Denmark"
      },
      "projectCount": 1
    },
    {
      "id": "teater-grob",
      "name": "Teater GROB",
      "type": "Other external organisation",
      "location": {
        "country": "Denmark",
        "city": "København N",
        "coordinates": {
          "lat": 55.688517,
          "lng": 12.55861
        }
      },
      "projectCount": 2
    },
    {
      "id": "vive-–-the-danish-center-for-social-science-research",
      "name": "VIVE – The Danish Center for Social Science Research",
      "type": "Research institution",
      "location": {
        "country": "Denmark",
        "coordinates": {
          "lat": 56.706543,
          "lng": 10.038276
        }
      },
      "projectCount": 7
    },
    {
      "id": "man-b&w-diesel-a/s",
      "name": "MAN B&W Diesel A/S",
      "type": "Corporate",
      "location": {
        "country": "Denmark",
        "coordinates": {
          "lat": 55.6490514,
          "lng": 12.5352729
        }
      },
      "projectCount": 1
    },
    {
      "id": "vattenfall",
      "name": "Vattenfall",
      "type": "Corporate",
      "location": {
        "country": "Sweden",
        "coordinates": {
          "lat": 59.36873,
          "lng": 18.002842
        }
      },
      "projectCount": 4
    },
    {
      "id": "folkesundhed-aarhus",
      "name": "Folkesundhed Aarhus",
      "type": "Other external organisation",
      "location": {
        "country": "Denmark",
        "coordinates": {
          "lat": 56.15403079999999,
          "lng": 10.1898244
        }
      },
      "projectCount": 7
    },
    {
      "id": "nem-byg-tjæreborg-a/s",
      "name": "Nem Byg Tjæreborg A/S",
      "type": "Corporate",
      "location": {
        "country": "Denmark",
        "city": "Tjæreborg",
        "coordinates": {
          "lat": 55.462698,
          "lng": 8.594401999999999
        }
      },
      "projectCount": 1
    },
    {
      "id": "nokia",
      "name": "Nokia",
      "type": "Corporate",
      "location": {
        "country": "Finland",
        "coordinates": {
          "lat": 60.17,
          "lng": 24.829
        }
      },
      "projectCount": 2
    },
    {
      "id": "siemens-a/s,-flow-instruments",
      "name": "Siemens A/S, Flow Instruments",
      "type": "Corporate",
      "location": {
        "country": "Denmark",
        "city": "Nordborg",
        "coordinates": {
          "lat": 54.92352589999999,
          "lng": 9.743747299999999
        }
      },
      "projectCount": 1
    },
    {
      "id": "dvi-energi",
      "name": "DVI Energi",
      "type": "Other external organisation",
      "location": {
        "country": "Denmark",
        "city": "Nibe",
        "coordinates": {
          "lat": 56.8881337,
          "lng": 9.7922453
        }
      },
      "projectCount": 1
    },
    {
      "id": "energimidt-a/s",
      "name": "EnergiMidt A/S",
      "type": "Corporate",
      "location": {
        "country": "Denmark",
        "coordinates": {
          "lat": 56.1356568,
          "lng": 9.026567199999999
        }
      },
      "projectCount": 1
    },
    {
      "id": "bruel-and-kjaer",
      "name": "Bruel and Kjaer",
      "type": "Corporate",
      "location": {
        "country": "Denmark"
      },
      "projectCount": 2
    },
    {
      "id": "hydac",
      "name": "Hydac",
      "type": "Unknown",
      "location": {
        "country": "Denmark",
        "coordinates": {
          "lat": 55.35108899999999,
          "lng": 10.5723341
        }
      },
      "projectCount": 1
    },
    {
      "id": "tetra-pak-scanima",
      "name": "Tetra Pak Scanima",
      "type": "Other external organisation",
      "location": {
        "country": "Denmark",
        "city": "Aalborg",
        "coordinates": {
          "lat": 57.0123481,
          "lng": 9.924476
        }
      },
      "projectCount": 1
    },
    {
      "id": "flinders-university",
      "name": "Flinders University",
      "type": "Academic",
      "location": {
        "country": "Australia",
        "coordinates": {
          "lat": -35.019,
          "lng": 138.573
        }
      },
      "projectCount": 1
    },
    {
      "id": "dansk-telemedicin-a/s",
      "name": "Dansk Telemedicin A/S",
      "type": "Corporate",
      "location": {
        "country": "Denmark",
        "city": "København S",
        "coordinates": {
          "lat": 55.617819,
          "lng": 12.5722704
        }
      },
      "projectCount": 1
    },
    {
      "id": "dermato-venerologisk-afdeling-og-videncenter-for-sårheling-afdeling-d/s",
      "name": "Dermato-Venerologisk afdeling og Videncenter for Sårheling afdeling D/S",
      "type": "Region",
      "location": {
        "country": "Denmark",
        "city": "København NV",
        "coordinates": {
          "lat": 55.7140142,
          "lng": 12.5401313
        }
      },
      "projectCount": 1
    },
    {
      "id": "hjemmesygeplejen-nørrebro",
      "name": "Hjemmesygeplejen Nørrebro",
      "type": "Municipal",
      "location": {
        "country": "Denmark",
        "city": "København N",
        "coordinates": {
          "lat": 55.6953669,
          "lng": 12.5513014
        }
      },
      "projectCount": 1
    },
    {
      "id": "vestas-wind-systems-as",
      "name": "Vestas Wind Systems AS",
      "type": "Corporate",
      "location": {
        "country": "Denmark",
        "city": "Aarhus",
        "coordinates": {
          "lat": 56.42688,
          "lng": 10.042253
        }
      },
      "projectCount": 9
    },
    {
      "id": "alexandra-institute",
      "name": "Alexandra Institute",
      "type": "Corporate",
      "location": {
        "country": "Denmark",
        "city": "Aarhus",
        "coordinates": {
          "lat": 55.662262,
          "lng": 12.584983
        }
      },
      "projectCount": 2
    },
    {
      "id": "oticon-danmark-as",
      "name": "Oticon Danmark AS",
      "type": "Corporate",
      "location": {
        "country": "Denmark",
        "coordinates": {
          "lat": 55.749,
          "lng": 12.294
        }
      },
      "projectCount": 12
    },
    {
      "id": "neogrid-technologies-aps",
      "name": "Neogrid Technologies ApS",
      "type": "Corporate",
      "location": {
        "country": "Denmark",
        "coordinates": {
          "lat": 57.012755,
          "lng": 9.98827
        }
      },
      "projectCount": 4
    },
    {
      "id": "copenhagen-university-hospital",
      "name": "Copenhagen University Hospital",
      "type": "Medical",
      "location": {
        "country": "Denmark",
        "city": "Copenhagen"
      },
      "projectCount": 3
    },
    {
      "id": "dansk-supermarked-a/s",
      "name": "Dansk Supermarked A/S",
      "type": "Corporate",
      "location": {
        "country": "Denmark",
        "city": "Højbjerg",
        "coordinates": {
          "lat": 56.1098981,
          "lng": 10.1570008
        }
      },
      "projectCount": 1
    },
    {
      "id": "force-technology",
      "name": "FORCE Technology",
      "type": "Corporate",
      "location": {
        "country": "Denmark",
        "coordinates": {
          "lat": 55.652,
          "lng": 12.386
        }
      },
      "projectCount": 1
    },
    {
      "id": "sticks'n'sushi",
      "name": "Sticks'n'Sushi",
      "type": "Other external organisation",
      "location": {
        "country": "Denmark",
        "coordinates": {
          "lat": 55.66577729999999,
          "lng": 12.5661667
        }
      },
      "projectCount": 1
    },
    {
      "id": "beijing-university-of-posts-and-telecommunications",
      "name": "Beijing University of Posts and Telecommunications",
      "type": "Academic",
      "location": {
        "country": "China",
        "coordinates": {
          "lat": 39.963,
          "lng": 116.358
        }
      },
      "projectCount": 1
    },
    {
      "id": "access2innovation",
      "name": "Access2innovation",
      "type": "Corporate",
      "location": {
        "country": "Denmark",
        "city": "Aalborg",
        "coordinates": {
          "lat": 56.26392,
          "lng": 9.501785
        }
      },
      "projectCount": 1
    },
    {
      "id": "kruse-smith-",
      "name": "Kruse Smith ",
      "type": "Other external organisation",
      "location": {
        "country": "Norway",
        "coordinates": {
          "lat": 58.15157139999999,
          "lng": 8.0040037
        }
      },
      "projectCount": 1
    },
    {
      "id": "aalborg-zoo",
      "name": "Aalborg Zoo",
      "type": "Government",
      "location": {
        "country": "Denmark",
        "coordinates": {
          "lat": 57.03703,
          "lng": 9.898044
        }
      },
      "projectCount": 5
    },
    {
      "id": "madmarked-a/s",
      "name": "MadMarked A/S",
      "type": "Corporate",
      "location": {
        "country": "Denmark",
        "city": "Præstø",
        "coordinates": {
          "lat": 55.12432399999999,
          "lng": 12.042668
        }
      },
      "projectCount": 3
    },
    {
      "id": "kuvatek-a/s",
      "name": "Kuvatek A/S",
      "type": "Corporate",
      "location": {
        "country": "Denmark",
        "coordinates": {
          "lat": 57.47687870000001,
          "lng": 10.2040369
        }
      },
      "projectCount": 1
    },
    {
      "id": "nordsøen-oceanarium",
      "name": "Nordsøen Oceanarium",
      "type": "Government",
      "location": {
        "country": "Denmark"
      },
      "projectCount": 1
    },
    {
      "id": "inwido-denmark-a/s",
      "name": "Inwido Denmark A/S",
      "type": "Corporate",
      "location": {
        "country": "Denmark",
        "coordinates": {
          "lat": 56.76194,
          "lng": 9.342711999999999
        }
      },
      "projectCount": 1
    },
    {
      "id": "waterkotte-gmbh",
      "name": "WATERKOTTE GmbH",
      "type": "Corporate",
      "location": {
        "country": "Germany",
        "city": "Herne",
        "coordinates": {
          "lat": 51.54552,
          "lng": 7.25364
        }
      },
      "projectCount": 1
    },
    {
      "id": "m-i-swaco,-a-schlumberger-company",
      "name": "M-I SWACO, A Schlumberger Company",
      "type": "Other external organisation",
      "location": {
        "country": "United Kingdom",
        "city": "Aberdeen",
        "coordinates": {
          "lat": 57.1436553,
          "lng": -2.0732129
        }
      },
      "projectCount": 1
    },
    {
      "id": "geological-survey-of-denmark-and-greenland",
      "name": "Geological Survey of Denmark and Greenland",
      "type": "Government",
      "location": {
        "country": "Denmark",
        "coordinates": {
          "lat": 55.6879,
          "lng": 12.5818
        }
      },
      "projectCount": 2
    },
    {
      "id": "frederikshavn-forsyning-a/s",
      "name": "Frederikshavn Forsyning A/S",
      "type": "Corporate",
      "location": {
        "country": "Denmark",
        "city": "Frederikshavn"
      },
      "projectCount": 1
    },
    {
      "id": "vejdirektoratet,-skanderborg",
      "name": "Vejdirektoratet, Skanderborg",
      "type": "Unknown",
      "location": {
        "country": "Denmark",
        "coordinates": {
          "lat": 56.0475237,
          "lng": 9.9436251
        }
      },
      "projectCount": 2
    },
    {
      "id": "siemens",
      "name": "Siemens",
      "type": "Corporate",
      "location": {
        "country": "Germany",
        "city": "Madrid",
        "coordinates": {
          "lat": 48.144,
          "lng": 11.576
        }
      },
      "projectCount": 12
    },
    {
      "id": "astrium-space-transportation",
      "name": "ASTRIUM Space Transportation",
      "type": "Unknown",
      "location": {
        "country": "Germany",
        "coordinates": {
          "lat": 51.165691,
          "lng": 10.451526
        }
      },
      "projectCount": 1
    },
    {
      "id": "landsforeningen-liv-&-død",
      "name": "Landsforeningen Liv & Død",
      "type": "Other external organisation",
      "location": {
        "country": "Denmark",
        "city": "København K",
        "coordinates": {
          "lat": 55.67822959999999,
          "lng": 12.5818279
        }
      },
      "projectCount": 1
    },
    {
      "id": "balay---rehabilitation-center",
      "name": "Balay - Rehabilitation Center",
      "type": "NGO",
      "location": {
        "country": "Philippines",
        "coordinates": {
          "lat": 14.641208,
          "lng": 121.052019
        }
      },
      "projectCount": 1
    },
    {
      "id": "dignity---danish-institute-against-torture",
      "name": "DIGNITY - Danish Institute Against torture",
      "type": "NGO",
      "location": {
        "country": "Denmark",
        "city": "Copenhagen",
        "coordinates": {
          "lat": 55.712644,
          "lng": 12.5661793
        }
      },
      "projectCount": 4
    },
    {
      "id": "durango-town-council",
      "name": "Durango Town Council",
      "type": "Other external organisation",
      "location": {
        "country": "Spain",
        "city": "Durango",
        "coordinates": {
          "lat": 43.1592542,
          "lng": -2.6238895
        }
      },
      "projectCount": 1
    },
    {
      "id": "maab-aquitectura-y-urbanismo",
      "name": "Maab Aquitectura y Urbanismo",
      "type": "Corporate",
      "location": {
        "country": "Spain",
        "city": "Bilbao",
        "coordinates": {
          "lat": 43.268752,
          "lng": -2.9294302
        }
      },
      "projectCount": 1
    },
    {
      "id": "maab-arquitectura-y-urbanismo",
      "name": "Maab Arquitectura y Urbanismo",
      "type": "Other external organisation",
      "location": {
        "country": "Spain",
        "city": "Bilbao",
        "coordinates": {
          "lat": 43.268752,
          "lng": -2.9294302
        }
      },
      "projectCount": 1
    },
    {
      "id": "aramaio-town-council",
      "name": "Aramaio Town Council",
      "type": "Municipal",
      "location": {
        "country": "Spain",
        "city": "Aramaio",
        "coordinates": {
          "lat": 43.0525907,
          "lng": -2.5648514
        }
      },
      "projectCount": 1
    },
    {
      "id": "ente-vasco-de-la-energía",
      "name": "Ente Vasco de la Energía",
      "type": "Governmental",
      "location": {
        "country": "Spain",
        "city": "Bilbao",
        "coordinates": {
          "lat": 43.260463,
          "lng": -2.936943
        }
      },
      "projectCount": 2
    },
    {
      "id": "beizama-town-council",
      "name": "Beizama Town Council",
      "type": "Municipal",
      "location": {
        "country": "Spain",
        "city": "Beizama",
        "coordinates": {
          "lat": 32.8218018,
          "lng": -117.2156436
        }
      },
      "projectCount": 1
    },
    {
      "id": "abadiño-town-council",
      "name": "Abadiño Town Council",
      "type": "Municipal",
      "location": {
        "country": "Spain",
        "city": "Abadiño",
        "coordinates": {
          "lat": 43.1525116,
          "lng": -2.6081693
        }
      },
      "projectCount": 1
    },
    {
      "id": "pandora-a/s",
      "name": "PANDORA A/S",
      "type": "Corporate",
      "location": {
        "country": "Denmark",
        "coordinates": {
          "lat": 55.6606624,
          "lng": 12.561918
        }
      },
      "projectCount": 2
    },
    {
      "id": "centre-for-civil-society",
      "name": "Centre for Civil Society",
      "type": "Other external organisation",
      "location": {
        "country": "South Africa",
        "city": "Durban",
        "coordinates": {
          "lat": -29.85868039999999,
          "lng": 31.0218404
        }
      },
      "projectCount": 1
    },
    {
      "id": "engineers-without-borders-australia",
      "name": "Engineers Without Borders Australia",
      "type": "Other external organisation",
      "location": {
        "country": "Australia",
        "city": "North Melbourne",
        "coordinates": {
          "lat": -37.808179,
          "lng": 144.905348
        }
      },
      "projectCount": 1
    },
    {
      "id": "3-anonyme-kommuner",
      "name": "3 anonyme kommuner",
      "type": "Municipal",
      "location": {
        "country": "Denmark",
        "city": "...",
        "coordinates": {
          "lat": 56.26392,
          "lng": 9.501785
        }
      },
      "projectCount": 1
    },
    {
      "id": "sundhed---plan-og-kvalitet,-region-nordjylland",
      "name": "Sundhed - Plan og Kvalitet, Region Nordjylland",
      "type": "Other external organisation",
      "location": {
        "country": "Denmark",
        "city": "Aalborg Ø",
        "coordinates": {
          "lat": 57.0171061,
          "lng": 9.9865347
        }
      },
      "projectCount": 1
    },
    {
      "id": "sundhedscenter-aalborg",
      "name": "Sundhedscenter Aalborg",
      "type": "Other external organisation",
      "location": {
        "country": "Denmark",
        "city": "Aalborg",
        "coordinates": {
          "lat": 57.046555,
          "lng": 9.932258
        }
      },
      "projectCount": 4
    },
    {
      "id": "trænregimentet,-hærens-center-for-logistik-og-militærpoliti",
      "name": "Trænregimentet, Hærens Center for Logistik og Militærpoliti",
      "type": "Other external organisation",
      "location": {
        "country": "Denmark",
        "city": "Nørresundby",
        "coordinates": {
          "lat": 57.08691260000001,
          "lng": 9.957031599999999
        }
      },
      "projectCount": 1
    },
    {
      "id": "mariagerfjord-kommune",
      "name": "Mariagerfjord Kommune",
      "type": "Municipal",
      "location": {
        "country": "Denmark",
        "coordinates": {
          "lat": 56.638664,
          "lng": 9.798809
        }
      },
      "projectCount": 3
    },
    {
      "id": "systematic-a/s",
      "name": "Systematic A/S",
      "type": "Corporate",
      "location": {
        "country": "Denmark",
        "city": "Aarhus",
        "coordinates": {
          "lat": 56.15194,
          "lng": 10.174748
        }
      },
      "projectCount": 2
    },
    {
      "id": "ic-companys",
      "name": "IC Companys",
      "type": "Other external organisation",
      "location": {
        "country": "Denmark",
        "city": "København S ",
        "coordinates": {
          "lat": 55.6712254,
          "lng": 12.6206652
        }
      },
      "projectCount": 1
    },
    {
      "id": "florida-international-university",
      "name": "Florida International University",
      "type": "Academic",
      "location": {
        "country": "United States",
        "coordinates": {
          "lat": 25.91,
          "lng": -80.142
        }
      },
      "projectCount": 1
    },
    {
      "id": "vamp-s.-a.",
      "name": "Vamp S. A.",
      "type": "Other external organisation",
      "location": {
        "country": "Greece",
        "coordinates": {
          "lat": 35.1752728,
          "lng": 25.1942468
        }
      },
      "projectCount": 1
    },
    {
      "id": "lt-automation-aps",
      "name": "LT Automation Aps",
      "type": "Corporate",
      "location": {
        "country": "Denmark",
        "city": "Hjallerup",
        "coordinates": {
          "lat": 57.0324949,
          "lng": 10.0181915
        }
      },
      "projectCount": 1
    },
    {
      "id": "the-danish-heart-foundation",
      "name": "The Danish Heart Foundation",
      "type": "NGO",
      "location": {
        "country": "Denmark",
        "city": "Copenhagen"
      },
      "projectCount": 1
    },
    {
      "id": "dbi",
      "name": "DBI",
      "type": "Other external organisation",
      "location": {
        "country": "Denmark",
        "city": "Hvidovre",
        "coordinates": {
          "lat": 55.610803,
          "lng": 12.489157
        }
      },
      "projectCount": 2
    },
    {
      "id": "ideaal-(allan-bjerre)",
      "name": "Ideaal (Allan Bjerre)",
      "type": "Corporate",
      "location": {
        "country": "Denmark",
        "city": "Helsingør",
        "coordinates": {
          "lat": 56.029992,
          "lng": 12.5665339
        }
      },
      "projectCount": 1
    },
    {
      "id": "idify-(michael-nørkjær)",
      "name": "Idify (Michael Nørkjær)",
      "type": "Other external organisation",
      "location": {
        "country": "Denmark",
        "city": "Malling",
        "coordinates": {
          "lat": 56.03063119999999,
          "lng": 10.2374892
        }
      },
      "projectCount": 1
    },
    {
      "id": "hello-world-mobile-(michael-bak)",
      "name": "Hello World Mobile (Michael Bak)",
      "type": "Other external organisation",
      "location": {
        "country": "Denmark",
        "city": "København",
        "coordinates": {
          "lat": 55.6664846,
          "lng": 12.5805679
        }
      },
      "projectCount": 1
    },
    {
      "id": "københavns-erhvervsservice-(janus-krarup)",
      "name": "Københavns Erhvervsservice (Janus Krarup)",
      "type": "Municipal",
      "location": {
        "country": "Denmark",
        "city": "København",
        "coordinates": {
          "lat": 55.6667262,
          "lng": 12.5788383
        }
      },
      "projectCount": 1
    },
    {
      "id": "symbion-(brian-list)",
      "name": "Symbion (Brian List)",
      "type": "Corporate",
      "location": {
        "country": "Denmark",
        "city": "København Ø",
        "coordinates": {
          "lat": 55.715743,
          "lng": 12.5494008
        }
      },
      "projectCount": 1
    },
    {
      "id": "aalborg-university",
      "name": "Aalborg University",
      "type": "Academic",
      "location": {
        "country": "Denmark",
        "coordinates": {
          "lat": 57.017,
          "lng": 9.979
        }
      },
      "projectCount": 4
    },
    {
      "id": "dansk-flygtningehjælp-ungdom",
      "name": "Dansk Flygtningehjælp Ungdom",
      "type": "NGO",
      "location": {
        "country": "Denmark",
        "city": "København N"
      },
      "projectCount": 2
    },
    {
      "id": "unit-for-cognitive-neuroscience",
      "name": "Unit for Cognitive Neuroscience",
      "type": "Other external organisation",
      "location": {
        "country": "Denmark",
        "city": "København K",
        "coordinates": {
          "lat": 55.686052,
          "lng": 12.5703821
        }
      },
      "projectCount": 1
    },
    {
      "id": "morsø",
      "name": "Morsø",
      "type": "Governmental",
      "location": {
        "country": "Denmark",
        "city": "Nykøbing",
        "coordinates": {
          "lat": 56.78487699999999,
          "lng": 8.834477
        }
      },
      "projectCount": 1
    },
    {
      "id": "aalborg-forsyning-a/s",
      "name": "Aalborg Forsyning A/S",
      "type": "Corporate",
      "location": {
        "country": "Denmark",
        "city": "Aalborg"
      },
      "projectCount": 10
    },
    {
      "id": "ideaal-aps",
      "name": "Ideaal ApS",
      "type": "Corporate",
      "location": {
        "country": "Denmark",
        "coordinates": {
          "lat": 57.04621299999999,
          "lng": 9.9223792
        }
      },
      "projectCount": 1
    },
    {
      "id": "agrotech-a/s",
      "name": "AgroTech A/S",
      "type": "Corporate",
      "location": {
        "country": "Denmark",
        "coordinates": {
          "lat": 56.200354,
          "lng": 10.15892
        }
      },
      "projectCount": 1
    },
    {
      "id": "rusmiddelcenter-silkeborg",
      "name": "Rusmiddelcenter Silkeborg",
      "type": "Other external organisation",
      "location": {
        "country": "Denmark",
        "city": "Silkeborg",
        "coordinates": {
          "lat": 56.1780582,
          "lng": 9.5555386
        }
      },
      "projectCount": 1
    },
    {
      "id": "neas-energy-a/s",
      "name": "Neas Energy A/S",
      "type": "Corporate",
      "location": {
        "country": "Denmark",
        "city": "Aalborg",
        "coordinates": {
          "lat": 57.022433,
          "lng": 9.901142799999999
        }
      },
      "projectCount": 3
    },
    {
      "id": "per-mortensen-",
      "name": "Per Mortensen ",
      "type": "Corporate",
      "location": {
        "country": "Denmark",
        "coordinates": {
          "lat": 55.247214,
          "lng": 10.475274
        }
      },
      "projectCount": 1
    },
    {
      "id": "det-grønne-hus",
      "name": "Det Grønne Hus",
      "type": "Unknown",
      "location": {
        "country": "Denmark",
        "coordinates": {
          "lat": 56.04073,
          "lng": 9.449999
        }
      },
      "projectCount": 1
    },
    {
      "id": "maersk-oil",
      "name": "Maersk Oil",
      "type": "Corporate",
      "location": {
        "country": "Denmark",
        "coordinates": {
          "lat": 55.716,
          "lng": 12.603
        }
      },
      "projectCount": 2
    },
    {
      "id": "olav-kristensen-aps",
      "name": "Olav kristensen ApS",
      "type": "Corporate",
      "location": {
        "country": "Denmark",
        "city": "Esbjerg",
        "coordinates": {
          "lat": 55.50626880000001,
          "lng": 8.4652712
        }
      },
      "projectCount": 1
    },
    {
      "id": "kk-wind-solutions-a/s",
      "name": "KK Wind Solutions A/S",
      "type": "Corporate",
      "location": {
        "country": "Denmark",
        "city": "Ikast"
      },
      "projectCount": 6
    },
    {
      "id": "moe-a/s",
      "name": "MOE A/S",
      "type": "Corporate",
      "location": {
        "country": "Denmark"
      },
      "projectCount": 6
    },
    {
      "id": "meebox-aps",
      "name": "Meebox ApS",
      "type": "Corporate",
      "location": {
        "country": "Denmark",
        "city": "København K",
        "coordinates": {
          "lat": 55.6171855,
          "lng": 12.5721683
        }
      },
      "projectCount": 1
    },
    {
      "id": "psykinfo-midt",
      "name": "PsykInfo Midt",
      "type": "Other external organisation",
      "location": {
        "country": "Denmark",
        "coordinates": {
          "lat": 55.4994728,
          "lng": 9.724502099999999
        }
      },
      "projectCount": 1
    },
    {
      "id": "krifa",
      "name": "Krifa",
      "type": "NGO",
      "location": {
        "country": "Denmark",
        "city": "Aarhus"
      },
      "projectCount": 1
    },
    {
      "id": "dansk-forsorgsselskab",
      "name": "Dansk Forsorgsselskab",
      "type": "Other external organisation",
      "location": {
        "country": "Denmark",
        "city": "København K.",
        "coordinates": {
          "lat": 55.6780874,
          "lng": 12.5814582
        }
      },
      "projectCount": 1
    },
    {
      "id": "arkil-a/s",
      "name": "Arkil A/S",
      "type": "Corporate",
      "location": {
        "country": "Denmark",
        "coordinates": {
          "lat": 55.467721,
          "lng": 9.475657
        }
      },
      "projectCount": 2
    },
    {
      "id": "bech-bruun-",
      "name": "Bech Bruun ",
      "type": "Corporate",
      "location": {
        "country": "Denmark",
        "coordinates": {
          "lat": 55.69973,
          "lng": 12.599876
        }
      },
      "projectCount": 2
    },
    {
      "id": "nordjyllands-politi",
      "name": "Nordjyllands Politi",
      "type": "Government",
      "location": {
        "country": "Denmark"
      },
      "projectCount": 11
    },
    {
      "id": "platform-4",
      "name": "Platform 4",
      "type": "Other external organisation",
      "location": {
        "country": "Denmark",
        "coordinates": {
          "lat": 57.0444685,
          "lng": 9.933791
        }
      },
      "projectCount": 1
    },
    {
      "id": "timan-a/s",
      "name": "Timan A/S",
      "type": "Corporate",
      "location": {
        "country": "Denmark",
        "city": "Tim",
        "coordinates": {
          "lat": 56.1941066,
          "lng": 8.308525099999999
        }
      },
      "projectCount": 1
    },
    {
      "id": "stick2nature",
      "name": "Stick2Nature",
      "type": "Other external organisation",
      "location": {
        "country": "Denmark",
        "city": "Hanstholm",
        "coordinates": {
          "lat": 57.1209052,
          "lng": 8.6047428
        }
      },
      "projectCount": 1
    },
    {
      "id": "silkeborg-kommune",
      "name": "Silkeborg Kommune",
      "type": "Municipal",
      "location": {
        "country": "Denmark",
        "city": "Silkeborg",
        "coordinates": {
          "lat": 56.171118,
          "lng": 9.549766
        }
      },
      "projectCount": 2
    },
    {
      "id": "idéklinikken",
      "name": "Idéklinikken",
      "type": "Other external organisation",
      "location": {
        "country": "Denmark",
        "city": "Aalborg",
        "coordinates": {
          "lat": 57.0393298,
          "lng": 9.9071967
        }
      },
      "projectCount": 1
    },
    {
      "id": "andice",
      "name": "AndICE",
      "type": "Other external organisation",
      "location": {
        "country": "Denmark",
        "city": "Aalborg",
        "coordinates": {
          "lat": 30.7821302,
          "lng": -97.85223839999999
        }
      },
      "projectCount": 1
    },
    {
      "id": "ad-precision-mechanics",
      "name": "AD PRecision Mechanics",
      "type": "Other external organisation",
      "location": {
        "country": "Italy",
        "city": "Ponte Galeria",
        "coordinates": {
          "lat": 41.823828,
          "lng": 12.3834854
        }
      },
      "projectCount": 1
    },
    {
      "id": "slettestrand-feriecenter",
      "name": "Slettestrand Feriecenter",
      "type": "Corporate",
      "location": {
        "country": "Denmark",
        "city": "Fjerritslev",
        "coordinates": {
          "lat": 57.1516144,
          "lng": 9.3636312
        }
      },
      "projectCount": 1
    },
    {
      "id": "aabenraa-kommune",
      "name": "Aabenraa Kommune",
      "type": "Municipal",
      "location": {
        "country": "Denmark",
        "city": "Aabenraa",
        "coordinates": {
          "lat": 55.0237732,
          "lng": 9.4223008
        }
      },
      "projectCount": 1
    },
    {
      "id": "awareness-against-human-trafficking-(haart)-",
      "name": "Awareness Against Human Trafficking (HAART) ",
      "type": "Other external organisation",
      "location": {
        "country": "Kenya",
        "city": "Nairobi",
        "coordinates": {
          "lat": -1.2920659,
          "lng": 36.8219462
        }
      },
      "projectCount": 1
    },
    {
      "id": "fonden-vega",
      "name": "Fonden VEGA",
      "type": "Funding provider",
      "location": {
        "country": "Denmark",
        "city": "København V",
        "coordinates": {
          "lat": 55.6680529,
          "lng": 12.5439823
        }
      },
      "projectCount": 1
    },
    {
      "id": "akaciegården",
      "name": "Akaciegården",
      "type": "Other external organisation",
      "location": {
        "country": "Denmark",
        "city": "Frederiksberg",
        "coordinates": {
          "lat": 55.669944,
          "lng": 12.496255
        }
      },
      "projectCount": 1
    },
    {
      "id": "interdisciplinary-center-for-organizational-architecture-(icoa)",
      "name": "Interdisciplinary Center for Organizational Architecture (ICOA)",
      "type": "Unknown",
      "location": {
        "country": "Denmark",
        "coordinates": {
          "lat": 32.176113,
          "lng": 34.836234
        }
      },
      "projectCount": 1
    },
    {
      "id": "deloitte",
      "name": "Deloitte",
      "type": "Corporate",
      "location": {
        "country": "Denmark"
      },
      "projectCount": 2
    },
    {
      "id": "erhvervsstyrelsen",
      "name": "Erhvervsstyrelsen",
      "type": "Government",
      "location": {
        "country": "Denmark",
        "city": "København Ø",
        "coordinates": {
          "lat": 55.6974575,
          "lng": 12.5997419
        }
      },
      "projectCount": 4
    },
    {
      "id": "barbara-i-gongini",
      "name": "BARBARA I GONGINI",
      "type": "Corporate",
      "location": {
        "country": "Denmark",
        "city": "Valby",
        "coordinates": {
          "lat": 55.656813,
          "lng": 12.503941
        }
      },
      "projectCount": 1
    },
    {
      "id": "fiberline-composites-a/s",
      "name": "Fiberline Composites A/S",
      "type": "Corporate",
      "location": {
        "country": "Denmark",
        "city": "Middelfart",
        "coordinates": {
          "lat": 55.502808,
          "lng": 9.785192
        }
      },
      "projectCount": 1
    },
    {
      "id": "lasertryk",
      "name": "Lasertryk",
      "type": "Corporate",
      "location": {
        "country": "Denmark",
        "city": "Aarhus N.",
        "coordinates": {
          "lat": 56.21007280000001,
          "lng": 10.190253
        }
      },
      "projectCount": 1
    },
    {
      "id": "danefæ",
      "name": "Danefæ",
      "type": "Corporate",
      "location": {
        "country": "Denmark",
        "city": "Beder",
        "coordinates": {
          "lat": 56.0536184,
          "lng": 10.199413
        }
      },
      "projectCount": 1
    },
    {
      "id": "skovby-skolen",
      "name": "Skovby skolen",
      "type": "Municipal",
      "location": {
        "country": "Denmark",
        "city": "Galten",
        "coordinates": {
          "lat": 56.15525599999999,
          "lng": 9.941369
        }
      },
      "projectCount": 1
    },
    {
      "id": "skolen-i-spil",
      "name": "Skolen i spil",
      "type": "Other external organisation",
      "location": {
        "country": "Denmark",
        "coordinates": {
          "lat": 56.18904999999999,
          "lng": 9.930610999999999
        }
      },
      "projectCount": 2
    },
    {
      "id": "vejle-sygehus",
      "name": "Vejle Sygehus",
      "type": "Region",
      "location": {
        "country": "Denmark",
        "city": "Vejle",
        "coordinates": {
          "lat": 55.7147278,
          "lng": 9.5381365
        }
      },
      "projectCount": 2
    },
    {
      "id": "aarhus-university-hospital",
      "name": "Aarhus University Hospital",
      "type": "Medical",
      "location": {
        "country": "Denmark",
        "city": "Aarhus"
      },
      "projectCount": 10
    },
    {
      "id": "nota",
      "name": "Nota",
      "type": "Governmental",
      "location": {
        "country": "Denmark",
        "city": "København Ø",
        "coordinates": {
          "lat": 55.7082413,
          "lng": 12.5585019
        }
      },
      "projectCount": 1
    },
    {
      "id": "sygehus-vendsyssel",
      "name": "Sygehus Vendsyssel",
      "type": "Municipal",
      "location": {
        "country": "Denmark",
        "coordinates": {
          "lat": 57.4462419,
          "lng": 10.5332463
        }
      },
      "projectCount": 1
    },
    {
      "id": "manova-",
      "name": "Manova ",
      "type": "Corporate",
      "location": {
        "country": "Denmark",
        "city": "København Ø",
        "coordinates": {
          "lat": 55.7088215,
          "lng": 12.5600606
        }
      },
      "projectCount": 1
    },
    {
      "id": "aalborg-funcenter",
      "name": "Aalborg FunCenter",
      "type": "Corporate",
      "location": {
        "country": "Denmark",
        "city": "Aalborg",
        "coordinates": {
          "lat": 57.0338417,
          "lng": 9.9341888
        }
      },
      "projectCount": 1
    },
    {
      "id": "studentum.dk",
      "name": "Studentum.dk",
      "type": "Other external organisation",
      "location": {
        "country": "Denmark",
        "coordinates": {
          "lat": 56.26392,
          "lng": 9.501785
        }
      },
      "projectCount": 1
    },
    {
      "id": "randers-sundhedscenter",
      "name": "Randers Sundhedscenter",
      "type": "Municipal",
      "location": {
        "country": "Denmark",
        "city": "Randers ",
        "coordinates": {
          "lat": 56.4632875,
          "lng": 10.0378343
        }
      },
      "projectCount": 1
    },
    {
      "id": "trine-ramsgaard-jensen",
      "name": "Trine Ramsgaard-Jensen",
      "type": "Other external organisation",
      "location": {
        "country": "Denmark",
        "city": "Aalborg",
        "coordinates": {
          "lat": 57.0449785,
          "lng": 9.918047399999999
        }
      },
      "projectCount": 1
    },
    {
      "id": "sund-info,-aalborg-sygehus,-aarhus-universitetshospital",
      "name": "Sund Info, Aalborg Sygehus, Aarhus Universitetshospital",
      "type": "Other external organisation",
      "projectCount": 1
    },
    {
      "id": "aarhus-university",
      "name": "Aarhus University",
      "type": "Academic",
      "location": {
        "country": "Denmark",
        "city": "Aarhus",
        "coordinates": {
          "lat": 56.167,
          "lng": 10.205
        }
      },
      "projectCount": 10
    },
    {
      "id": "brønderslev-kommune",
      "name": "Brønderslev Kommune",
      "type": "Municipal",
      "location": {
        "country": "Denmark",
        "city": "Brønderslev",
        "coordinates": {
          "lat": 57.2706379,
          "lng": 9.9468161
        }
      },
      "projectCount": 3
    },
    {
      "id": "egmont",
      "name": "Egmont",
      "type": "Other external organisation",
      "location": {
        "country": "Denmark",
        "city": "København K",
        "coordinates": {
          "lat": 55.682657,
          "lng": 12.577648
        }
      },
      "projectCount": 1
    },
    {
      "id": "københavns-musikteater",
      "name": "Københavns Musikteater",
      "type": "Other external organisation",
      "location": {
        "country": "Denmark",
        "city": "København K",
        "coordinates": {
          "lat": 55.70751139999999,
          "lng": 12.554607
        }
      },
      "projectCount": 1
    },
    {
      "id": "cae",
      "name": "CAE",
      "type": "Other external organisation",
      "location": {
        "country": "Belgium",
        "city": "Bruxelles",
        "coordinates": {
          "lat": 50.84489,
          "lng": 4.37214
        }
      },
      "projectCount": 1
    },
    {
      "id": "lindpro-a/s",
      "name": "Lindpro A/S",
      "type": "Corporate",
      "location": {
        "country": "Denmark",
        "coordinates": {
          "lat": 55.02551399999999,
          "lng": 9.409545999999999
        }
      },
      "projectCount": 1
    },
    {
      "id": "streetammo-aps",
      "name": "Streetammo ApS",
      "type": "Corporate",
      "location": {
        "country": "Denmark",
        "city": "Nørresundby",
        "coordinates": {
          "lat": 57.0239127,
          "lng": 9.895372199999999
        }
      },
      "projectCount": 1
    },
    {
      "id": "sundhedscenter-vejle",
      "name": "Sundhedscenter Vejle",
      "type": "Municipal",
      "location": {
        "country": "Denmark",
        "coordinates": {
          "lat": 55.707671,
          "lng": 9.517833
        }
      },
      "projectCount": 1
    },
    {
      "id": "daman",
      "name": "daman",
      "type": "Corporate",
      "location": {
        "country": "Denmark",
        "city": "København V",
        "coordinates": {
          "lat": 55.67269,
          "lng": 12.587916
        }
      },
      "projectCount": 1
    },
    {
      "id": "thy-mors-hf-&-vuc,-thisted-afdelingen",
      "name": "Thy-Mors HF & VUC, Thisted-afdelingen",
      "type": "Other external organisation",
      "location": {
        "country": "Denmark",
        "city": "Thisted",
        "coordinates": {
          "lat": 56.955728,
          "lng": 8.699187
        }
      },
      "projectCount": 1
    },
    {
      "id": "fortrolig",
      "name": "Fortrolig",
      "type": "Other external organisation",
      "location": {
        "country": "Denmark",
        "coordinates": {
          "lat": 56.26392,
          "lng": 9.501785
        }
      },
      "projectCount": 1
    },
    {
      "id": "sky-watch",
      "name": "Sky-Watch",
      "type": "Corporate",
      "location": {
        "country": "Denmark",
        "city": "Støvring"
      },
      "projectCount": 3
    },
    {
      "id": "active-sportswear-international-a/s",
      "name": "Active Sportswear International A/S",
      "type": "Corporate",
      "location": {
        "country": "Denmark",
        "city": "Brønderslev",
        "coordinates": {
          "lat": 57.25782299999999,
          "lng": 9.9617349
        }
      },
      "projectCount": 1
    },
    {
      "id": "dong-energy-a/s",
      "name": "DONG Energy A/S",
      "type": "Corporate",
      "location": {
        "country": "Denmark",
        "coordinates": {
          "lat": 55.7571267,
          "lng": 12.5169089
        }
      },
      "projectCount": 3
    },
    {
      "id": "sportskarate.dk",
      "name": "Sportskarate.dk",
      "type": "Other external organisation",
      "location": {
        "country": "Denmark",
        "coordinates": {
          "lat": 57.04643489999999,
          "lng": 9.9335186
        }
      },
      "projectCount": 1
    },
    {
      "id": "susanne-ravn",
      "name": "Susanne Ravn",
      "type": "Other external organisation",
      "location": {
        "country": "Denmark",
        "city": "Odense",
        "coordinates": {
          "lat": 55.3689827,
          "lng": 10.4282364
        }
      },
      "projectCount": 1
    },
    {
      "id": "roskilde-forsyning",
      "name": "Roskilde Forsyning",
      "type": "Other external organisation",
      "location": {
        "country": "Denmark",
        "city": "Roskilde",
        "coordinates": {
          "lat": 55.64633,
          "lng": 12.125521
        }
      },
      "projectCount": 1
    },
    {
      "id": "randers-kommune",
      "name": "Randers Kommune",
      "type": "Municipal",
      "location": {
        "country": "Denmark",
        "coordinates": {
          "lat": 56.4581946,
          "lng": 10.035061
        }
      },
      "projectCount": 8
    },
    {
      "id": "viborg-kommune",
      "name": "Viborg Kommune",
      "type": "Municipal",
      "location": {
        "country": "Denmark",
        "coordinates": {
          "lat": 56.4585142,
          "lng": 9.3983647
        }
      },
      "projectCount": 7
    },
    {
      "id": "anders-kofoed-wiuff",
      "name": "Anders Kofoed-Wiuff",
      "type": "Corporate",
      "location": {
        "country": "Denmark",
        "city": "København",
        "coordinates": {
          "lat": 55.678416,
          "lng": 12.572058
        }
      },
      "projectCount": 1
    },
    {
      "id": "jános-hethey",
      "name": "János Hethey",
      "type": "Corporate",
      "location": {
        "country": "Denmark",
        "city": "København",
        "coordinates": {
          "lat": 55.678416,
          "lng": 12.572058
        }
      },
      "projectCount": 1
    },
    {
      "id": "spiio",
      "name": "Spiio",
      "type": "Other external organisation",
      "location": {
        "country": "Denmark",
        "city": "Kbh Ø",
        "coordinates": {
          "lat": 55.711882,
          "lng": 12.566497
        }
      },
      "projectCount": 1
    },
    {
      "id": "auckland-university-of-technology",
      "name": "Auckland University of Technology",
      "type": "Academic",
      "location": {
        "country": "New Zealand",
        "coordinates": {
          "lat": -36.853,
          "lng": 174.767
        }
      },
      "projectCount": 1
    },
    {
      "id": "the-german-institute-of-food-technologies-(dil)",
      "name": "The German Institute of Food Technologies (DIL)",
      "type": "Research institution",
      "location": {
        "country": "Germany",
        "city": "Quakenbrück",
        "coordinates": {
          "lat": 52.66864,
          "lng": 7.953720000000001
        }
      },
      "projectCount": 1
    },
    {
      "id": "tommy-mølbak",
      "name": "Tommy Mølbak",
      "type": "Other external organisation",
      "location": {
        "country": "Denmark",
        "city": "Vejle",
        "coordinates": {
          "lat": 55.7341187,
          "lng": 9.5799016
        }
      },
      "projectCount": 1
    },
    {
      "id": "chalmers-university-of-technology",
      "name": "Chalmers University of Technology",
      "type": "Academic",
      "location": {
        "country": "Sweden",
        "city": "Göteborg",
        "coordinates": {
          "lat": 57.69,
          "lng": 11.974
        }
      },
      "projectCount": 1
    },
    {
      "id": "vestkronik-v.-arbejdsmedicinsk-klinik-regionshospitalet-herning",
      "name": "VestKronik v. Arbejdsmedicinsk Klinik Regionshospitalet Herning",
      "type": "Other external organisation",
      "location": {
        "country": "Denmark",
        "city": "Herning ",
        "coordinates": {
          "lat": 56.14066279999999,
          "lng": 8.9729656
        }
      },
      "projectCount": 1
    },
    {
      "id": "lloyd's-register-ods",
      "name": "Lloyd's Register ODS",
      "type": "Other external organisation",
      "location": {
        "country": "Denmark",
        "city": "Hellerup",
        "coordinates": {
          "lat": 55.733382,
          "lng": 12.576348
        }
      },
      "projectCount": 1
    },
    {
      "id": "national-oilwell-varco-flexibles",
      "name": "National Oilwell Varco Flexibles",
      "type": "Other external organisation",
      "location": {
        "country": "Denmark",
        "city": "Aalborg",
        "coordinates": {
          "lat": 57.0164675,
          "lng": 9.9762544
        }
      },
      "projectCount": 1
    },
    {
      "id": "lynge-skole",
      "name": "Lynge skole",
      "type": "Other external organisation",
      "location": {
        "country": "Denmark",
        "city": "Lynge",
        "coordinates": {
          "lat": 55.843426,
          "lng": 12.284643
        }
      },
      "projectCount": 2
    },
    {
      "id": "barry-callebaut",
      "name": "Barry Callebaut",
      "type": "Other external organisation",
      "location": {
        "country": "Belgium",
        "city": "Gent",
        "coordinates": {
          "lat": 50.8127882,
          "lng": 3.918130699999999
        }
      },
      "projectCount": 2
    },
    {
      "id": "venligboerne",
      "name": "Venligboerne",
      "type": "Other external organisation",
      "location": {
        "country": "Denmark",
        "city": "Hjørring",
        "coordinates": {
          "lat": 57.4595048,
          "lng": 9.9890707
        }
      },
      "projectCount": 1
    },
    {
      "id": "agri-nord",
      "name": "Agri Nord",
      "type": "Corporate",
      "location": {
        "country": "Denmark",
        "city": "Aalborg"
      },
      "projectCount": 2
    },
    {
      "id": "university-of-copenhagen",
      "name": "University of Copenhagen",
      "type": "Academic",
      "location": {
        "country": "Denmark",
        "coordinates": {
          "lat": 55.68,
          "lng": 12.572
        }
      },
      "projectCount": 10
    },
    {
      "id": "danish-board-of-technology-foundation",
      "name": "Danish Board of Technology Foundation",
      "type": "Other external organisation",
      "location": {
        "country": "Denmark",
        "city": "København",
        "coordinates": {
          "lat": 55.642,
          "lng": 12.468
        }
      },
      "projectCount": 1
    },
    {
      "id": "robert-bosch-foundation",
      "name": "Robert Bosch Foundation",
      "type": "Other external organisation",
      "location": {
        "country": "Germany",
        "coordinates": {
          "lat": 48.814,
          "lng": 9.187
        }
      },
      "projectCount": 1
    },
    {
      "id": "semco-maritime-a/s",
      "name": "Semco Maritime A/S",
      "type": "Corporate",
      "location": {
        "country": "Denmark"
      },
      "projectCount": 5
    },
    {
      "id": "jyske-bank-a/s",
      "name": "Jyske Bank A/S",
      "type": "Corporate",
      "location": {
        "country": "Denmark"
      },
      "projectCount": 1
    },
    {
      "id": "alectia",
      "name": "ALECTIA",
      "type": "Unknown",
      "location": {
        "country": "Denmark",
        "coordinates": {
          "lat": 55.8005951,
          "lng": 12.4986274
        }
      },
      "projectCount": 1
    },
    {
      "id": "nkc-(national-kriminalteknisk-center=",
      "name": "NKC (National Kriminalteknisk Center=",
      "type": "Governmental",
      "location": {
        "country": "Denmark",
        "city": "København V",
        "coordinates": {
          "lat": 39.14290810000001,
          "lng": -94.5729781
        }
      },
      "projectCount": 1
    },
    {
      "id": "bluetown",
      "name": "BlueTown",
      "type": "Corporate",
      "location": {
        "country": "Denmark",
        "coordinates": {
          "lat": 55.703608,
          "lng": 12.572107
        }
      },
      "projectCount": 2
    },
    {
      "id": "landsorganisationen-lev",
      "name": "Landsorganisationen LEV",
      "type": "Other external organisation",
      "location": {
        "country": "Denmark",
        "city": "Taastrup",
        "coordinates": {
          "lat": 55.6465397,
          "lng": 12.263751
        }
      },
      "projectCount": 1
    },
    {
      "id": "the-neighborhood-initiative",
      "name": "The Neighborhood Initiative",
      "type": "Other external organisation",
      "location": {
        "country": "Lebanon",
        "city": "Beirut",
        "coordinates": {
          "lat": 33.9008359,
          "lng": 35.480744
        }
      },
      "projectCount": 1
    },
    {
      "id": "grontmij",
      "name": "Grontmij",
      "type": "Corporate",
      "location": {
        "country": "Denmark",
        "city": "Aalborg SV",
        "coordinates": {
          "lat": 55.682168,
          "lng": 12.4136246
        }
      },
      "projectCount": 1
    },
    {
      "id": "plejecenter-skovhuset",
      "name": "Plejecenter Skovhuset",
      "type": "Municipal",
      "location": {
        "country": "Denmark",
        "city": "Hillerød",
        "coordinates": {
          "lat": 55.929852,
          "lng": 12.348106
        }
      },
      "projectCount": 1
    },
    {
      "id": "engineers-without-borders-denmark-(ingeniører-uden-grænser)",
      "name": "Engineers Without Borders Denmark (Ingeniører uden Grænser)",
      "type": "Other external organisation",
      "projectCount": 1
    },
    {
      "id": "via-university-college",
      "name": "VIA University College",
      "type": "Academic",
      "location": {
        "country": "Denmark",
        "coordinates": {
          "lat": 56.193,
          "lng": 10.181
        }
      },
      "projectCount": 1
    },
    {
      "id": "brovst-skole",
      "name": "Brovst skole",
      "type": "Municipal",
      "location": {
        "country": "Denmark",
        "coordinates": {
          "lat": 57.0963943,
          "lng": 9.5285283
        }
      },
      "projectCount": 1
    },
    {
      "id": "ringkøbing-skjern-kommune",
      "name": "Ringkøbing-Skjern Kommune",
      "type": "Municipal",
      "location": {
        "country": "Denmark",
        "city": "Ringkøbing",
        "coordinates": {
          "lat": 56.0866547,
          "lng": 8.2424046
        }
      },
      "projectCount": 1
    },
    {
      "id": "hjemmeværnet:-hjemmeværnsdistrikt-nordjylland",
      "name": "Hjemmeværnet: Hjemmeværnsdistrikt Nordjylland",
      "type": "Other external organisation",
      "location": {
        "country": "Denmark",
        "coordinates": {
          "lat": 57.0869467,
          "lng": 9.956965499999999
        }
      },
      "projectCount": 1
    },
    {
      "id": "nn",
      "name": "NN",
      "type": "Other external organisation",
      "location": {
        "country": "Denmark",
        "coordinates": {
          "lat": 55.7548083,
          "lng": 12.4517708
        }
      },
      "projectCount": 1
    },
    {
      "id": "lithuanian-gay-league",
      "name": "Lithuanian Gay League",
      "type": "Other external organisation",
      "location": {
        "country": "Lithuania",
        "coordinates": {
          "lat": 54.67885279999999,
          "lng": 25.2782065
        }
      },
      "projectCount": 1
    },
    {
      "id": "tolerant-youth-association",
      "name": "Tolerant Youth Association",
      "type": "Other external organisation",
      "location": {
        "country": "Lithuania",
        "coordinates": {
          "lat": 54.6893598,
          "lng": 25.276475
        }
      },
      "projectCount": 1
    },
    {
      "id": "grennessminde",
      "name": "Grennessminde",
      "type": "Other external organisation",
      "location": {
        "country": "Denmark",
        "city": "Taastrup",
        "coordinates": {
          "lat": 55.6416935,
          "lng": 12.2947474
        }
      },
      "projectCount": 1
    },
    {
      "id": "greenlandic-representation-office-in-copenhagen",
      "name": "Greenlandic Representation Office in Copenhagen",
      "type": "Governmental",
      "location": {
        "country": "Denmark",
        "city": "København K",
        "coordinates": {
          "lat": 55.677677,
          "lng": 12.596621
        }
      },
      "projectCount": 1
    },
    {
      "id": "projekt-udenfor",
      "name": "projekt UDENFOR",
      "type": "NGO",
      "location": {
        "country": "Denmark",
        "coordinates": {
          "lat": 55.6880044,
          "lng": 12.5615421
        }
      },
      "projectCount": 2
    },
    {
      "id": "københavns-kommunes-18+-indsats,-center-for-forebyggelse-og-rådgivning",
      "name": "Københavns Kommunes 18+ indsats, Center for Forebyggelse og Rådgivning",
      "type": "Municipal",
      "location": {
        "country": "Denmark",
        "city": "København NV",
        "coordinates": {
          "lat": 55.6849186,
          "lng": 12.5541902
        }
      },
      "projectCount": 1
    },